Vers 57
USE_SERIAL_FEEDBACK=false
DEVELOPMENT_MODE=false
USE_RMC_ONLY=false

$GPGGA,193049.000,4305.1556,N,07740.7775,W,1,05,1.43,199.2,M,-34.4,M,,*55
$GPRMC,193049.000,A,4305.1556,N,07740.7775,W,0.44,134.92,130818,,,A*77
lng=-77.679618, lat=43.085929, altitude=199.20, speed=0.72, satellites=5, angle=119.3000, fixquality=1
$GPGGA,193049.200,4305.1556,N,07740.7774,W,1,05,1.43,199.1,M,-34.4,M,,*55
$GPRMC,193049.200,A,4305.1556,N,07740.7774,W,0.48,150.30,130818,,,A*72
lng=-77.679618, lat=43.085929, altitude=199.10, speed=0.44, satellites=5, angle=134.9200, fixquality=1
$GPGGA,193049.400,4305.1557,N,07740.7773,W,1,05,1.43,199.2,M,-34.4,M,,*56
$GPRMC,193049.400,A,4305.1557,N,07740.7773,W,0.39,157.62,130818,,,A*74
lng=-77.679618, lat=43.085929, altitude=199.20, speed=0.48, satellites=5, angle=150.3000, fixquality=1
$GPGGA,193049.600,4305.1558,N,07740.7774,W,1,05,1.42,199.4,M,-34.4,M,,*5B
$GPRMC,193049.600,A,4305.1558,N,07740.7774,W,0.22,179.48,130818,,,A*70
lng=-77.679618, lat=43.085929, altitude=199.40, speed=0.39, satellites=5, angle=157.6200, fixquality=1
$GPGGA,193049.800,4305.1558,N,07740.7774,W,1,05,1.43,199.2,M,-34.4,M,,*52
$GPRMC,193049.800,A,4305.1558,N,07740.7774,W,0.16,200.90,130818,,,A*71
lng=-77.679618, lat=43.085929, altitude=199.20, speed=0.22, satellites=5, angle=179.4800, fixquality=1
$GPGGA,193050.000,4305.1559,N,07740.7774,W,1,05,1.43,199.5,M,-34.4,M,,*54
$GPRMC,193050.000,A,4305.1559,N,07740.7774,W,0.14,194.50,130818,,,A*70
lng=-77.679618, lat=43.085929, altitude=199.50, speed=0.16, satellites=5, angle=200.9000, fixquality=1
$GPGGA,193050.200,4305.1558,N,07740.7775,W,1,05,1.42,199.1,M,-34.4,M,,*53
$GPRMC,193050.200,A,4305.1558,N,07740.7775,W,0.11,154.52,130818,,,A*79
lng=-77.679618, lat=43.085929, altitude=199.10, speed=0.14, satellites=5, angle=194.5000, fixquality=1
$GPGGA,193050.400,4305.1559,N,07740.7775,W,1,05,1.43,199.5,M,-34.4,M,,*51
$GPRMC,193050.400,A,4305.1559,N,07740.7775,W,0.15,152.89,130818,,,A*7A
lng=-77.679618, lat=43.085929, altitude=199.50, speed=0.11, satellites=5, angle=154.5200, fixquality=1
$GPGGA,193050.600,4305.1560,N,07740.7776,W,1,05,1.43,199.8,M,-34.4,M,,*57
$GPRMC,193050.600,A,4305.1560,N,07740.7776,W,0.18,154.10,130818,,,A*7A
lng=-77.679634, lat=43.085929, altitude=199.80, speed=0.15, satellites=5, angle=152.8900, fixquality=1
$GPGGA,193050.800,4305.1562,N,07740.7776,W,1,05,1.43,200.4,M,-34.4,M,,*54
$GPRMC,193050.800,A,4305.1562,N,07740.7776,W,0.20,160.20,130818,,,A*79
lng=-77.679634, lat=43.085937, altitude=200.40, speed=0.18, satellites=5, angle=154.1000, fixquality=1
$GPGGA,193051.000,4305.1565,N,07740.7776,W,1,05,1.42,201.4,M,-34.4,M,,*5A
$GPRMC,193051.000,A,4305.1565,N,07740.7776,W,0.14,174.51,130818,,,A*73
lng=-77.679634, lat=43.085945, altitude=201.40, speed=0.20, satellites=5, angle=160.2000, fixquality=1
$GPGGA,193051.200,4305.1566,N,07740.7777,W,1,05,1.43,201.9,M,-34.4,M,,*56
$GPRMC,193051.200,A,4305.1566,N,07740.7777,W,0.09,170.78,130818,,,A*70
lng=-77.679634, lat=43.085945, altitude=201.90, speed=0.14, satellites=5, angle=174.5100, fixquality=1
$GPGGA,193051.400,4305.1566,N,07740.7777,W,1,05,1.42,202.1,M,-34.4,M,,*5A
$GPRMC,193051.400,A,4305.1566,N,07740.7777,W,0.07,161.73,130818
lng=-77.679634, lat=43.085945, altitude=202.10, speed=0.09, satellites=5, angle=170.7800, fixquality=1
$GPGGA,193051.600,4305.1566,N,07740.7777,W,1,06,1.23,202.1,M,-34.4,M,,*5C
$GPRMC,193051.600,A,4305.1566,N,07740.7777,W,0.06,162.49,130818,,,A*7A
lng=-77.679634, lat=43.085945, altitude=202.10, speed=0.07, satellites=6, angle=161.7300, fixquality=1
$GPGGA,193051.800,4305.1566,N,07740.7777,W,1,06,1.23,202.1,M,-34.4,M,,*52
$GPRMC,193051.800,A,4305.1566,N,07740.7777,W,0.04,164.46,130818
lng=-77.679634, lat=43.085945, altitude=202.10, speed=0.06, satellites=6, angle=162.4900, fixquality=1
$GPGGA,193052.000,4305.1565,N,07740.7775,W,1,06,1.23,201.9,M,-34.4,M,,*53
$GPRMC,193052.000,A,4305.1565,N,07740.7775,W,0.05,163.34,130818,,,A*76
lng=-77.679618, lat=43.085945, altitude=201.90, speed=0.04, satellites=6, angle=164.4600, fixquality=1
$GPGGA,193052.200,4305.1563,N,07740.7774,W,1,06,1.23,201.4,M,-34.4,M,,*5B
$GPRMC,193052.200,A,4305.1563,N,07740.7774,W,0.05,159.07,130818
lng=-77.679618, lat=43.085937, altitude=201.40, speed=0.05, satellites=6, angle=163.3400, fixquality=1
$GPGGA,193052.400,4305.1560,N,07740.7773,W,1,06,1.23,200.5,M,-34.4,M,,*59
$GPRMC,193052.400,A,4305.1560,N,07740.7773,W,0.04,156.17,130818,,,A*77
lng=-77.679618, lat=43.085929, altitude=200.50, speed=0.05, satellites=6, angle=159.0700, fixquality=1
$GPGGA,193052.600,4305.1557,N,07740.7772,W,1,06,1.23,199.5,M,-34.4,M,,*5D
$GPRMC,193052.600,A,4305.1557,N,07740.7772,W,0.04,95.07,130818,,,A*4F
lng=-77.679618, lat=43.085929, altitude=199.50, speed=0.04, satellites=6, angle=156.1700, fixquality=1
$GPGGA,193052.800,4305.1555,N,07740.7772,W,1,06,1.23,198.5,M,-34.4,M,,*50
$GPRMC,193052.800,A,4305.1555,N,07740.7772,W,0.05,83.70,130818,,,A*45
lng=-77.679618, lat=43.085922, altitude=198.50, speed=0.04, satellites=6, angle=95.0700, fixquality=1
$GPGGA,193053.000,4305.1553,N,07740.7772,W,1,06,1.23,197.9,M,-34.4,M,,*5C
$GPRMC,193053.000,A,4305.1553,N,07740.7772,W,0.03,112.92,130818,,,A*79
lng=-77.679618, lat=43.085922, altitude=197.90, speed=0.05, satellites=6, angle=83.7000, fixquality=1
$GPGGA,193053.200,4305.1550,N,07740.7771,W,1,06,1.23,196.8,M,-34.4,M,,*5E
$GPRMC,193053.200,A,4305.1550,N,07740.7771,W,0.05,92.79,130818,,,A*41
lng=-77.679618, lat=43.085914, altitude=196.80, speed=0.03, satellites=6, angle=112.9200, fixquality=1
$GPGGA,193053.400,4305.1546,N,07740.7771,W,1,06,1.23,195.4,M,-34.4,M,,*50
$GPRMC,193053.400,A,4305.1546,N,07740.7771,W,0.08,83.31,130818,,,A*41
lng=-77.679618, lat=43.085914, altitude=195.40, speed=0.05, satellites=6, angle=92.7900, fixquality=1
$GPGGA,193053.600,4305.1543,N,07740.7770,W,1,06,1.23,194.2,M,-34.4,M,,*51
$GPRMC,193053.600,A,4305.1543,N,07740.7770,W,0.14,76.21,130818,,,A*41
lng=-77.679611, lat=43.085903, altitude=194.20, speed=0.08, satellites=6, angle=83.3100, fixquality=1
$GPGGA,193053.800,4305.1540,N,07740.7768,W,1,06,1.23,193.3,M,-34.4,M,,*53
$GPRMC,193053.800,A,4305.1540,N,07740.7768,W,0.12,83.66,130818,,,A*4A
lng=-77.679611, lat=43.085895, altitude=193.30, speed=0.14, satellites=6, angle=76.2100, fixquality=1
$GPGGA,193054.000,4305.1538,N,07740.7767,W,1,06,1.23,193.1,M,-34.4,M,,*5E
$GPRMC,193054.000,A,4305.1538,N,07740.7767,W,0.13,96.72,130818,,,A*45
lng=-77.679611, lat=43.085895, altitude=193.10, speed=0.12, satellites=6, angle=83.6600, fixquality=1
$GPGGA,193054.200,4305.1536,N,07740.7766,W,1,06,1.23,192.8,M,-34.4,M,,*5B
$GPRMC,193054.200,A,4305.1536,N,07740.7766,W,0.15,110.69,130818,,,A*7B
lng=-77.679603, lat=43.085895, altitude=192.80, speed=0.13, satellites=6, angle=96.7200, fixquality=1
$GPGGA,193054.400,4305.1534,N,07740.7765,W,1,06,1.23,192.5,M,-34.4,M,,*51
$GPRMC,193054.400,A,4305.1534,N,07740.7765,W,0.16,110.00,130818,,,A*70
lng=-77.679603, lat=43.085887, altitude=192.50, speed=0.15, satellites=6, angle=110.6900, fixquality=1
$GPGGA,193054.600,4305.1533,N,07740.7764,W,1,06,1.23,192.2,M,-34.4,M,,*52
$GPRMC,193054.600,A,4305.1533,N,07740.7764,W,0.17,117.57,130818,,,A*70
lng=-77.679603, lat=43.085887, altitude=192.20, speed=0.16, satellites=6, angle=110.0000, fixquality=1
$GPGGA,193054.800,4305.1532,N,07740.7764,W,1,06,1.23,192.0,M,-34.4,M,,*5F
$GPRMC,193054.800,A,4305.1532,N,07740.7764,W,0.16,120.72,130818,,,A*7D
lng=-77.679603, lat=43.085887, altitude=192.00, speed=0.17, satellites=6, angle=117.5700, fixquality=1
$GPGGA,193055.000,4305.1531,N,07740.7764,W,1,06,1.23,191.8,M,-34.4,M,,*5E
$GPRMC,193055.000,A,4305.1531,N,07740.7764,W,0.16,137.02,130818,,,A*76
lng=-77.679603, lat=43.085887, altitude=191.80, speed=0.16, satellites=6, angle=120.7200, fixquality=1
$GPGGA,193055.200,4305.1530,N,07740.7764,W,1,06,1.23,191.7,M,-34.4,M,,*52
$GPRMC,193055.200,A,4305.1530,N,07740.7764,W,0.12,145.63,130818,,,A*73
lng=-77.679603, lat=43.085880, altitude=191.70, speed=0.16, satellites=6, angle=137.0200, fixquality=1
$GPGGA,193055.400,4305.1530,N,07740.7764,W,1,06,1.23,191.5,M,-34.4,M,,*56
$GPRMC,193055.400,A,4305.1530,N,07740.7764,W,0.11,151.43,130818,,,A*71
lng=-77.679603, lat=43.085880, altitude=191.50, speed=0.12, satellites=6, angle=145.6300, fixquality=1
$GPGGA,193055.600,4305.1530,N,07740.7764,W,1,06,1.23,191.4,M,-34.4,M,,*55
$GPRMC,193055.600,A,4305.1530,N,07740.7764,W,0.08,146.78,130818,,,A*75
lng=-77.679603, lat=43.085880, altitude=191.40, speed=0.11, satellites=6, angle=151.4300, fixquality=1
$GPGGA,193055.800,4305.1529,N,07740.7764,W,1,06,1.23,191.2,M,-34.4,M,,*55
$GPRMC,193055.800,A,4305.1529,N,07740.7764,W,0.06,160.64,130818,,,A*74
lng=-77.679603, lat=43.085880, altitude=191.20, speed=0.08, satellites=6, angle=146.7800, fixquality=1
$GPGGA,193056.000,4305.1529,N,07740.7764,W,1,06,1.23,191.1,M,-34.4,M,,*5D
$GPRMC,193056.000,A,4305.1529,N,07740.7764,W,0.06,159.77,130818,,,A*77
lng=-77.679603, lat=43.085880, altitude=191.10, speed=0.06, satellites=6, angle=160.6400, fixquality=1
$GPGGA,193056.200,4305.1528,N,07740.7764,W,1,06,1.23,190.9,M,-34.4,M,,*57
$GPRMC,193056.200,A,4305.1528,N,07740.7764,W,0.06,152.21,130818,,,A*7C
lng=-77.679603, lat=43.085880, altitude=190.90, speed=0.06, satellites=6, angle=159.7700, fixquality=1
$GPGGA,193056.400,4305.1528,N,07740.7764,W,1,06,1.23,190.7,M,-34.4,M,,*5F
$GPRMC,193056.400,A,4305.1528,N,07740.7764,W,0.06,155.00,130818,,,A*7E
lng=-77.679603, lat=43.085880, altitude=190.70, speed=0.06, satellites=6, angle=152.2100, fixquality=1
$GPGGA,193056.600,4305.1527,N,07740.7764,W,1,06,1.23,190.5,M,-34.4,M,,*50
$GPRMC,193056.600,A,4305.1527,N,07740.7764,W,0.07,153.02,130818,,,A*76
lng=-77.679603, lat=43.085880, altitude=190.50, speed=0.06, satellites=6, angle=155.0000, fixquality=1
$GPGGA,193056.800,4305.1527,N,07740.7765,W,1,06,1.23,190.4,M,-34.4,M,,*5E
$GPRMC,193056.800,A,4305.1527,N,07740.7765,W,0.06,147.90,130818
lng=-77.679603, lat=43.085880, altitude=190.40, speed=0.07, satellites=6, angle=153.0200, fixquality=1
$GPGGA,193057.000,4305.1526,N,07740.7765,W,1,06,1.23,190.2,M,-34.4,M,,*50
$GPRMC,193057.000,A,4305.1526,N,07740.7765,W,0.07,171.08,130818,,,A*7B
lng=-77.679603, lat=43.085880, altitude=190.20, speed=0.06, satellites=6, angle=147.9000, fixquality=1
$GPGGA,193057.200,4305.1525,N,07740.7765,W,1,06,1.23,189.8,M,-34.4,M,,*53
$GPRMC,193057.200,A,4305.1525,N,07740.7765,W,0.08,189.94,130818
lng=-77.679603, lat=43.085872, altitude=189.80, speed=0.07, satellites=6, angle=171.0800, fixquality=1
$GPGGA,193057.400,4305.1524,N,07740.7765,W,1,06,1.23,189.5,M,-34.4,M,,*59
$GPRMC,193057.400,A,4305.1524,N,07740.7765,W,0.08,196.53,130818,,,A*75
lng=-77.679603, lat=43.085872, altitude=189.50, speed=0.08, satellites=6, angle=189.9400, fixquality=1
$GPGGA,193057.600,4305.1523,N,07740.7766,W,1,06,1.23,189.1,M,-34.4,M,,*5B
$GPRMC,193057.600,A,4305.1523,N,07740.7766,W,0.10,203.16,130818
lng=-77.679603, lat=43.085872, altitude=189.10, speed=0.08, satellites=6, angle=196.5300, fixquality=1
$GPGGA,193057.800,4305.1522,N,07740.7766,W,1,06,1.23,189.0,M,-34.4,M,,*55
$GPRMC,193057.800,A,4305.1522,N,07740.7766,W,0.11,201.57,130818,,,A*7D
lng=-77.679603, lat=43.085872, altitude=189.00, speed=0.10, satellites=6, angle=203.1600, fixquality=1
$GPGGA,193058.000,4305.1522,N,07740.7766,W,1,06,1.23,188.9,M,-34.4,M,,*5A
$GPRMC,193058.000,A,4305.1522,N,07740.7766,W,0.12,200.61,130818,,,A*7D
lng=-77.679603, lat=43.085872, altitude=188.90, speed=0.11, satellites=6, angle=201.5700, fixquality=1
$GPGGA,193058.200,4305.1521,N,07740.7766,W,1,06,1.23,188.7,M,-34.4,M,,*55
$GPRMC,193058.200,A,4305.1521,N,07740.7766,W,0.15,202.07,130818,,,A*79
lng=-77.679603, lat=43.085865, altitude=188.70, speed=0.12, satellites=6, angle=200.6100, fixquality=1
$GPGGA,193058.400,4305.1521,N,07740.7766,W,1,06,1.23,188.6,M,-34.4,M,,*52
$GPRMC,193058.400,A,4305.1521,N,07740.7766,W,0.15,202.68,130818,,,A*76
lng=-77.679603, lat=43.085865, altitude=188.60, speed=0.15, satellites=6, angle=202.0700, fixquality=1
$GPGGA,193058.600,4305.1520,N,07740.7766,W,1,06,1.23,188.5,M,-34.4,M,,*52
$GPRMC,193058.600,A,4305.1520,N,07740.7766,W,0.16,204.08,130818,,,A*76
lng=-77.679603, lat=43.085865, altitude=188.50, speed=0.15, satellites=6, angle=202.6800, fixquality=1
$GPGGA,193058.800,4305.1519,N,07740.7766,W,1,06,1.23,188.4,M,-34.4,M,,*57
$GPRMC,193058.800,A,4305.1519,N,07740.7766,W,0.15,202.10,130818,,,A*7E
lng=-77.679603, lat=43.085865, altitude=188.40, speed=0.16, satellites=6, angle=204.0800, fixquality=1
$GPGGA,193059.000,4305.1519,N,07740.7765,W,1,06,1.23,188.4,M,-34.4,M,,*5D
$GPRMC,193059.000,A,4305.1519,N,07740.7765,W,0.15,199.81,130818,,,A*7D
lng=-77.679603, lat=43.085865, altitude=188.40, speed=0.15, satellites=6, angle=202.1000, fixquality=1
$GPGGA,193059.200,4305.1518,N,07740.7765,W,1,06,1.23,188.3,M,-34.4,M,,*59
$GPRMC,193059.200,A,4305.1518,N,07740.7765,W,0.15,203.86,130818,,,A*79
lng=-77.679603, lat=43.085865, altitude=188.30, speed=0.15, satellites=6, angle=199.8100, fixquality=1
$GPGGA,193059.600,4305.1517,N,07740.7765,W,1,06,1.23,188.1,M,-34.4,M,,*50
$GPRMC,193059.600,A,4305.1517,N,07740.7765,W,0.17,206.27,130818,,,A*7E
lng=-77.679603, lat=43.085865, altitude=188.10, speed=0.15, satellites=6, angle=203.8600, fixquality=1
$GPGGA,193059.800,4305.1517,N,07740.7765,W,1,06,1.23,188.1,M,-34.4,M,,*5E
$GPRMC,193059.800,A,4305.1517,N,07740.7765,W,0.18,208.33,130818,,,A*74
lng=-77.679603, lat=43.085865, altitude=188.10, speed=0.17, satellites=6, angle=206.2700, fixquality=1
$GPGGA,193100.000,4305.1517,N,07740.7765,W,1,06,1.23,188.1,M,-34.4,M,,*5B
$GPRMC,193100.000,A,4305.1517,N,07740.7765,W,0.17,211.39,130818,,,A*7C
lng=-77.679603, lat=43.085865, altitude=188.10, speed=0.18, satellites=6, angle=208.3300, fixquality=1
$GPGGA,193100.200,4305.1516,N,07740.7764,W,1,06,1.23,188.0,M,-34.4,M,,*58
$GPRMC,193100.200,A,4305.1516,N,07740.7764,W,0.18,212.66,130818,,,A*78
lng=-77.679603, lat=43.085857, altitude=188.00, speed=0.17, satellites=6, angle=211.3900, fixquality=1
$GPGGA,193100.400,4305.1515,N,07740.7764,W,1,06,1.23,188.0,M,-34.4,M,,*5D
$GPRMC,193100.400,A,4305.1515,N,07740.7764,W,0.17,211.21,130818,,,A*72
lng=-77.679603, lat=43.085857, altitude=188.00, speed=0.18, satellites=6, angle=212.6600, fixquality=1
$GPGGA,193100.600,4305.1514,N,07740.7764,W,1,06,1.23,187.9,M,-34.4,M,,*58
$GPRMC,193100.600,A,4305.1514,N,07740.7764,W,0.18,208.26,130818,,,A*71
lng=-77.679603, lat=43.085857, altitude=187.90, speed=0.17, satellites=6, angle=211.2100, fixquality=1
$GPGGA,193100.800,4305.1513,N,07740.7763,W,1,06,1.23,187.7,M,-34.4,M,,*58
$GPRMC,193100.800,A,4305.1513,N,07740.7763,W,0.21,198.22,130818,,,A*7B
lng=-77.679603, lat=43.085857, altitude=187.70, speed=0.18, satellites=6, angle=208.2600, fixquality=1
$GPGGA,193101.000,4305.1511,N,07740.7762,W,1,06,1.23,187.3,M,-34.4,M,,*56
$GPRMC,193101.000,A,4305.1511,N,07740.7762,W,0.21,188.40,130818,,,A*74
lng=-77.679603, lat=43.085849, altitude=187.30, speed=0.21, satellites=6, angle=198.2200, fixquality=1
$GPGGA,193101.200,4305.1508,N,07740.7760,W,1,06,1.23,186.9,M,-34.4,M,,*55
$GPRMC,193101.200,A,4305.1508,N,07740.7760,W,0.24,171.13,130818,,,A*79
lng=-77.679595, lat=43.085849, altitude=186.90, speed=0.21, satellites=6, angle=188.4000, fixquality=1
$GPGGA,193101.400,4305.1507,N,07740.7759,W,1,06,1.23,186.6,M,-34.4,M,,*59
$GPRMC,193101.400,A,4305.1507,N,07740.7759,W,0.24,157.04,130818,,,A*78
lng=-77.679595, lat=43.085849, altitude=186.60, speed=0.24, satellites=6, angle=171.1300, fixquality=1
$GPGGA,193101.600,4305.1505,N,07740.7758,W,1,06,1.23,186.3,M,-34.4,M,,*5D
$GPRMC,193101.600,A,4305.1505,N,07740.7758,W,0.27,152.58,130818,,,A*76
lng=-77.679595, lat=43.085838, altitude=186.30, speed=0.24, satellites=6, angle=157.0400, fixquality=1
$GPGGA,193101.800,4305.1504,N,07740.7757,W,1,06,1.23,186.0,M,-34.4,M,,*5E
$GPRMC,193101.800,A,4305.1504,N,07740.7757,W,0.26,153.60,130818,,,A*7D
lng=-77.679595, lat=43.085838, altitude=186.00, speed=0.27, satellites=6, angle=152.5800, fixquality=1
$GPGGA,193102.000,4305.1503,N,07740.7756,W,1,06,1.23,185.8,M,-34.4,M,,*58
$GPRMC,193102.000,A,4305.1503,N,07740.7756,W,0.26,148.72,130818,,,A*79
lng=-77.679588, lat=43.085838, altitude=185.80, speed=0.26, satellites=6, angle=153.6000, fixquality=1
$GPGGA,193102.200,4305.1502,N,07740.7755,W,1,06,1.23,185.7,M,-34.4,M,,*57
$GPRMC,193102.200,A,4305.1502,N,07740.7755,W,0.23,138.36,130818,,,A*7B
lng=-77.679588, lat=43.085838, altitude=185.70, speed=0.26, satellites=6, angle=148.7200, fixquality=1
$GPGGA,193102.400,4305.1501,N,07740.7754,W,1,06,1.23,185.6,M,-34.4,M,,*52
$GPRMC,193102.400,A,4305.1501,N,07740.7754,W,0.20,139.89,130818,,,A*79
lng=-77.679588, lat=43.085830, altitude=185.60, speed=0.23, satellites=6, angle=138.3600, fixquality=1
$GPGGA,193102.600,4305.1500,N,07740.7753,W,1,06,1.23,185.5,M,-34.4,M,,*55
$GPRMC,193102.600,A,4305.1500,N,07740.7753,W,0.18,140.30,130818,,,A*7A
lng=-77.679588, lat=43.085830, altitude=185.50, speed=0.20, satellites=6, angle=139.8900, fixquality=1
$GPGGA,193102.800,4305.1499,N,07740.7752,W,1,06,1.23,185.5,M,-34.4,M,,*5B
$GPRMC,193102.800,A,4305.1499,N,07740.7752,W,0.16,151.46,130818
lng=-77.679588, lat=43.085830, altitude=185.50, speed=0.18, satellites=6, angle=140.3000, fixquality=1
$GPGGA,193103.000,4305.1498,N,07740.7751,W,1,06,1.23,185.4,M,-34.4,M,,*51
$GPRMC,193103.000,A,4305.1498,N,07740.7751,W,0.20,159.37,130818,,,A*7B
lng=-77.679580, lat=43.085830, altitude=185.40, speed=0.16, satellites=6, angle=151.4600, fixquality=1
$GPGGA,193103.200,4305.1497,N,07740.7751,W,1,06,1.23,185.4,M,-34.4,M,,*5C
$GPRMC,193103.200,A,4305.1497,N,07740.7751,W,0.22,162.27,130818
lng=-77.679580, lat=43.085830, altitude=185.40, speed=0.20, satellites=6, angle=159.3700, fixquality=1
$GPGGA,193103.400,4305.1497,N,07740.7749,W,1,06,1.23,185.4,M,-34.4,M,,*53
$GPRMC,193103.400,A,4305.1497,N,07740.7749,W,0.24,163.12,130818,,,A*73
lng=-77.679580, lat=43.085830, altitude=185.40, speed=0.22, satellites=6, angle=162.2700, fixquality=1
$GPGGA,193103.600,4305.1496,N,07740.7748,W,1,06,1.23,185.4,M,-34.4,M,,*51
$GPRMC,193103.600,A,4305.1496,N,07740.7748,W,0.26,163.13,130818
lng=-77.679580, lat=43.085823, altitude=185.40, speed=0.24, satellites=6, angle=163.1200, fixquality=1
$GPGGA,193103.800,4305.1495,N,07740.7747,W,1,06,1.23,185.4,M,-34.4,M,,*53
$GPRMC,193103.800,A,4305.1495,N,07740.7747,W,0.29,157.45,130818,,,A*7B
lng=-77.679580, lat=43.085823, altitude=185.40, speed=0.26, satellites=6, angle=163.1300, fixquality=1
$GPGGA,193104.000,4305.1494,N,07740.7745,W,1,06,1.23,185.4,M,-34.4,M,,*5F
$GPRMC,193104.000,A,4305.1494,N,07740.7745,W,0.27,155.37,130818,,,A*7E
lng=-77.679573, lat=43.085823, altitude=185.40, speed=0.29, satellites=6, angle=157.4500, fixquality=1
$GPGGA,193104.200,4305.1493,N,07740.7744,W,1,06,1.23,185.4,M,-34.4,M,,*5B
$GPRMC,193104.200,A,4305.1493,N,07740.7744,W,0.25,158.55,130818,,,A*71
lng=-77.679573, lat=43.085823, altitude=185.40, speed=0.27, satellites=6, angle=155.3700, fixquality=1
$GPGGA,193104.400,4305.1493,N,07740.7744,W,1,06,1.23,185.4,M,-34.4,M,,*5D
$GPRMC,193104.400,A,4305.1493,N,07740.7744,W,0.25,158.75,130818,,,A*75
lng=-77.679573, lat=43.085823, altitude=185.40, speed=0.25, satellites=6, angle=158.5500, fixquality=1
$GPGGA,193104.600,4305.1492,N,07740.7743,W,1,06,1.23,185.3,M,-34.4,M,,*5E
$GPRMC,193104.600,A,4305.1492,N,07740.7743,W,0.26,158.76,130818,,,A*71
lng=-77.679573, lat=43.085823, altitude=185.30, speed=0.25, satellites=6, angle=158.7500, fixquality=1
$GPGGA,193104.800,4305.1492,N,07740.7743,W,1,06,1.23,185.3,M,-34.4,M,,*50
$GPRMC,193104.800,A,4305.1492,N,07740.7743,W,0.26,157.32,130818,,,A*70
lng=-77.679573, lat=43.085823, altitude=185.30, speed=0.26, satellites=6, angle=158.7600, fixquality=1
$GPGGA,193105.000,4305.1491,N,07740.7741,W,1,06,1.23,185.4,M,-34.4,M,,*5F
$GPRMC,193105.000,A,4305.1491,N,07740.7741,W,0.30,153.28,130818,,,A*70
lng=-77.679565, lat=43.085815, altitude=185.40, speed=0.26, satellites=6, angle=157.3200, fixquality=1
$GPGGA,193105.200,4305.1490,N,07740.7740,W,1,06,1.23,185.5,M,-34.4,M,,*5C
$GPRMC,193105.200,A,4305.1490,N,07740.7740,W,0.33,151.65,130818,,,A*7A
lng=-77.679565, lat=43.085815, altitude=185.50, speed=0.30, satellites=6, angle=153.2800, fixquality=1
$GPGGA,193105.400,4305.1490,N,07740.7738,W,1,06,1.23,185.6,M,-34.4,M,,*56
$GPRMC,193105.400,A,4305.1490,N,07740.7738,W,0.32,149.19,130818,,,A*70
lng=-77.679565, lat=43.085815, altitude=185.60, speed=0.33, satellites=6, angle=151.6500, fixquality=1
$GPGGA,193105.600,4305.1489,N,07740.7737,W,1,06,1.23,185.7,M,-34.4,M,,*52
$GPRMC,193105.600,A,4305.1489,N,07740.7737,W,0.32,150.94,130818,,,A*78
lng=-77.679565, lat=43.085815, altitude=185.70, speed=0.32, satellites=6, angle=149.1900, fixquality=1
$GPGGA,193105.800,4305.1488,N,07740.7736,W,1,06,1.23,185.7,M,-34.4,M,,*5C
$GPRMC,193105.800,A,4305.1488,N,07740.7736,W,0.30,150.37,130818,,,A*7D
lng=-77.679557, lat=43.085815, altitude=185.70, speed=0.32, satellites=6, angle=150.9400, fixquality=1
$GPGGA,193106.000,4305.1488,N,07740.7735,W,1,06,1.23,185.8,M,-34.4,M,,*5B
$GPRMC,193106.000,A,4305.1488,N,07740.7735,W,0.31,149.33,130818,,,A*78
lng=-77.679557, lat=43.085815, altitude=185.80, speed=0.30, satellites=6, angle=150.3700, fixquality=1
$GPGGA,193106.200,4305.1487,N,07740.7734,W,1,06,1.23,185.8,M,-34.4,M,,*57
$GPRMC,193106.200,A,4305.1487,N,07740.7734,W,0.30,146.39,130818,,,A*70
lng=-77.679557, lat=43.085815, altitude=185.80, speed=0.31, satellites=6, angle=149.3300, fixquality=1
$GPGGA,193106.400,4305.1487,N,07740.7734,W,1,06,1.23,185.9,M,-34.4,M,,*50
$GPRMC,193106.400,A,4305.1487,N,07740.7734,W,0.31,147.00,130818,,,A*7C
lng=-77.679557, lat=43.085815, altitude=185.90, speed=0.30, satellites=6, angle=146.3900, fixquality=1
$GPGGA,193106.600,4305.1486,N,07740.7732,W,1,06,1.23,185.9,M,-34.4,M,,*55
$GPRMC,193106.600,A,4305.1486,N,07740.7732,W,0.30,145.78,130818,,,A*75
lng=-77.679557, lat=43.085807, altitude=185.90, speed=0.31, satellites=6, angle=147.0000, fixquality=1
$GPGGA,193106.800,4305.1486,N,07740.7731,W,1,06,1.23,186.0,M,-34.4,M,,*52
$GPRMC,193106.800,A,4305.1486,N,07740.7731,W,0.21,136.87,130818,,,A*7C
lng=-77.679550, lat=43.085807, altitude=186.00, speed=0.30, satellites=6, angle=145.7800, fixquality=1
$GPGGA,193107.000,4305.1486,N,07740.7730,W,1,06,1.23,186.0,M,-34.4,M,,*5A
$GPRMC,193107.000,A,4305.1486,N,07740.7730,W,0.13,119.13,130818,,,A*75
lng=-77.679550, lat=43.085807, altitude=186.00, speed=0.21, satellites=6, angle=136.8700, fixquality=1
$GPGGA,193107.200,4305.1486,N,07740.7730,W,1,06,1.23,186.0,M,-34.4,M,,*58
$GPRMC,193107.200,A,4305.1486,N,07740.7730,W,0.09,90.08,130818,,,A*46
lng=-77.679550, lat=43.085807, altitude=186.00, speed=0.13, satellites=6, angle=119.1300, fixquality=1
$GPGGA,193107.400,4305.1486,N,07740.7729,W,1,06,1.23,186.0,M,-34.4,M,,*56
$GPRMC,193107.400,A,4305.1486,N,07740.7729,W,0.08,57.09,130818,,,A*43
lng=-77.679550, lat=43.085807, altitude=186.00, speed=0.09, satellites=6, angle=90.0800, fixquality=1
$GPGGA,193107.600,4305.1485,N,07740.7728,W,1,06,1.23,186.0,M,-34.4,M,,*56
$GPRMC,193107.600,A,4305.1485,N,07740.7728,W,0.10,56.44,130818,,,A*42
lng=-77.679550, lat=43.085807, altitude=186.00, speed=0.08, satellites=6, angle=57.0900, fixquality=1
$GPGGA,193107.800,4305.1485,N,07740.7727,W,1,06,1.23,186.0,M,-34.4,M,,*57
$GPRMC,193107.800,A,4305.1485,N,07740.7727,W,0.11,69.07,130818,,,A*49
lng=-77.679542, lat=43.085807, altitude=186.00, speed=0.10, satellites=6, angle=56.4400, fixquality=1
$GPGGA,193108.000,4305.1484,N,07740.7726,W,1,06,1.23,186.0,M,-34.4,M,,*50
$GPRMC,193108.000,A,4305.1484,N,07740.7726,W,0.18,82.63,130818,,,A*40
lng=-77.679542, lat=43.085807, altitude=186.00, speed=0.11, satellites=6, angle=69.0700, fixquality=1
$GPGGA,193108.200,4305.1484,N,07740.7724,W,1,06,1.23,186.1,M,-34.4,M,,*51
$GPRMC,193108.200,A,4305.1484,N,07740.7724,W,0.24,89.64,130818,,,A*43
lng=-77.679542, lat=43.085807, altitude=186.10, speed=0.18, satellites=6, angle=82.6300, fixquality=1
$GPGGA,193108.400,4305.1483,N,07740.7724,W,1,06,1.23,186.2,M,-34.4,M,,*53
$GPRMC,193108.400,A,4305.1483,N,07740.7724,W,0.22,92.05,130818,,,A*49
lng=-77.679542, lat=43.085807, altitude=186.20, speed=0.24, satellites=6, angle=89.6400, fixquality=1
$GPGGA,193108.600,4305.1483,N,07740.7723,W,1,06,1.23,186.3,M,-34.4,M,,*57
$GPRMC,193108.600,A,4305.1483,N,07740.7723,W,0.21,90.21,130818
lng=-77.679542, lat=43.085807, altitude=186.30, speed=0.22, satellites=6, angle=92.0500, fixquality=1
$GPGGA,193108.800,4305.1482,N,07740.7723,W,1,06,1.23,186.3,M,-34.4,M,,*58
$GPRMC,193108.800,A,4305.1482,N,07740.7723,W,0.17,85.28,130818,,,A*4C
lng=-77.679542, lat=43.085807, altitude=186.30, speed=0.21, satellites=6, angle=90.2100, fixquality=1
$GPGGA,193109.000,4305.1482,N,07740.7723,W,1,06,1.23,186.3,M,-34.4,M,,*51
$GPRMC,193109.000,A,4305.1482,N,07740.7723,W,0.14,69.63,130818
lng=-77.679542, lat=43.085807, altitude=186.30, speed=0.17, satellites=6, angle=85.2800, fixquality=1
$GPGGA,193109.200,4305.1482,N,07740.7723,W,1,06,1.23,186.3,M,-34.4,M,,*53
$GPRMC,193109.200,A,4305.1482,N,07740.7723,W,0.11,52.04,130818,,,A*45
lng=-77.679542, lat=43.085807, altitude=186.30, speed=0.14, satellites=6, angle=69.6300, fixquality=1
$GPGGA,193109.400,4305.1481,N,07740.7722,W,1,06,1.23,186.4,M,-34.4,M,,*50
$GPRMC,193109.400,A,4305.1481,N,07740.7722,W,0.07,48.48,130818
lng=-77.679534, lat=43.085800, altitude=186.40, speed=0.11, satellites=6, angle=52.0400, fixquality=1
$GPGGA,193109.600,4305.1481,N,07740.7723,W,1,06,1.23,186.5,M,-34.4,M,,*52
$GPRMC,193109.600,A,4305.1481,N,07740.7723,W,0.03,35.17,130818,,,A*42
lng=-77.679542, lat=43.085800, altitude=186.50, speed=0.07, satellites=6, angle=48.4800, fixquality=1
$GPGGA,193109.800,4305.1481,N,07740.7722,W,1,06,1.23,186.5,M,-34.4,M,,*5D
$GPRMC,193109.800,A,4305.1481,N,07740.7722,W,0.02,351.25,130818,,,A*7C
lng=-77.679534, lat=43.085800, altitude=186.50, speed=0.03, satellites=6, angle=35.1700, fixquality=1
$GPGGA,193110.000,4305.1481,N,07740.7722,W,1,06,1.27,186.5,M,-34.4,M,,*59
$GPRMC,193110.000,A,4305.1481,N,07740.7722,W,0.06,346.66,130818,,,A*79
lng=-77.679534, lat=43.085800, altitude=186.50, speed=0.02, satellites=6, angle=351.2500, fixquality=1
$GPGGA,193110.200,4305.1480,N,07740.7722,W,1,06,1.27,186.6,M,-34.4,M,,*59
$GPRMC,193110.200,A,4305.1480,N,07740.7722,W,0.07,14.65,130818,,,A*4C
lng=-77.679534, lat=43.085800, altitude=186.60, speed=0.06, satellites=6, angle=346.6600, fixquality=1
$GPGGA,193110.400,4305.1480,N,07740.7721,W,1,06,1.27,186.5,M,-34.4,M,,*5F
$GPRMC,193110.400,A,4305.1480,N,07740.7721,W,0.10,27.89,130818,,,A*4D
lng=-77.679534, lat=43.085800, altitude=186.50, speed=0.07, satellites=6, angle=14.6500, fixquality=1
$GPGGA,193110.600,4305.1480,N,07740.7721,W,1,06,1.23,186.5,M,-34.4,M,,*59
$GPRMC,193110.600,A,4305.1480,N,07740.7721,W,0.15,35.21,130818,,,A*4B
lng=-77.679534, lat=43.085800, altitude=186.50, speed=0.10, satellites=6, angle=27.8900, fixquality=1
$GPGGA,193110.800,4305.1481,N,07740.7720,W,1,06,1.23,186.6,M,-34.4,M,,*54
$GPRMC,193110.800,A,4305.1481,N,07740.7720,W,0.17,32.54,130818,,,A*42
lng=-77.679534, lat=43.085800, altitude=186.60, speed=0.15, satellites=6, angle=35.2100, fixquality=1
$GPGGA,193111.000,4305.1481,N,07740.7720,W,1,06,1.23,186.6,M,-34.4,M,,*5D
$GPRMC,193111.000,A,4305.1481,N,07740.7720,W,0.22,38.76,130818,,,A*47
lng=-77.679534, lat=43.085800, altitude=186.60, speed=0.17, satellites=6, angle=32.5400, fixquality=1
$GPGGA,193111.200,4305.1481,N,07740.7719,W,1,06,1.23,186.7,M,-34.4,M,,*54
$GPRMC,193111.200,A,4305.1481,N,07740.7719,W,0.25,44.23,130818,,,A*43
lng=-77.679534, lat=43.085800, altitude=186.70, speed=0.22, satellites=6, angle=38.7600, fixquality=1
$GPGGA,193111.400,4305.1481,N,07740.7720,W,1,06,1.23,186.7,M,-34.4,M,,*58
$GPRMC,193111.400,A,4305.1481,N,07740.7720,W,0.21,39.13,130818,,,A*42
lng=-77.679534, lat=43.085800, altitude=186.70, speed=0.25, satellites=6, angle=44.2300, fixquality=1
$GPGGA,193111.600,4305.1481,N,07740.7720,W,1,06,1.23,186.7,M,-34.4,M,,*5A
$GPRMC,193111.600,A,4305.1481,N,07740.7720,W,0.19,35.93,130818,,,A*4F
lng=-77.679534, lat=43.085800, altitude=186.70, speed=0.21, satellites=6, angle=39.1300, fixquality=1
$GPGGA,193111.800,4305.1481,N,07740.7719,W,1,06,1.23,186.8,M,-34.4,M,,*51
$GPRMC,193111.800,A,4305.1481,N,07740.7719,W,0.17,40.01,130818,,,A*4C
lng=-77.679534, lat=43.085800, altitude=186.80, speed=0.19, satellites=6, angle=35.9300, fixquality=1
$GPGGA,193112.000,4305.1481,N,07740.7719,W,1,06,1.23,186.8,M,-34.4,M,,*5A
$GPRMC,193112.000,A,4305.1481,N,07740.7719,W,0.12,44.82,130818,,,A*4D
lng=-77.679534, lat=43.085800, altitude=186.80, speed=0.17, satellites=6, angle=40.0100, fixquality=1
$GPGGA,193112.200,4305.1481,N,07740.7719,W,1,06,1.23,186.9,M,-34.4,M,,*59
$GPRMC,193112.200,A,4305.1481,N,07740.7719,W,0.15,52.01,130818,,,A*44
lng=-77.679534, lat=43.085800, altitude=186.90, speed=0.12, satellites=6, angle=44.8200, fixquality=1
$GPGGA,193112.400,4305.1482,N,07740.7718,W,1,06,1.23,187.0,M,-34.4,M,,*55
$GPRMC,193112.400,A,4305.1482,N,07740.7718,W,0.20,50.98,130818,,,A*44
lng=-77.679534, lat=43.085807, altitude=187.00, speed=0.15, satellites=6, angle=52.0100, fixquality=1
$GPGGA,193112.600,4305.1482,N,07740.7717,W,1,06,1.23,187.1,M,-34.4,M,,*59
$GPRMC,193112.600,A,4305.1482,N,07740.7717,W,0.25,43.92,130818,,,A*44
lng=-77.679527, lat=43.085807, altitude=187.10, speed=0.20, satellites=6, angle=50.9800, fixquality=1
$GPGGA,193112.800,4305.1483,N,07740.7717,W,1,06,1.23,187.1,M,-34.4,M,,*56
$GPRMC,193112.800,A,4305.1483,N,07740.7717,W,0.29,38.90,130818,,,A*49
lng=-77.679527, lat=43.085807, altitude=187.10, speed=0.25, satellites=6, angle=43.9200, fixquality=1
$GPGGA,193113.000,4305.1483,N,07740.7716,W,1,06,1.23,187.1,M,-34.4,M,,*5E
$GPRMC,193113.000,A,4305.1483,N,07740.7716,W,0.26,36.31,130818,,,A*4B
lng=-77.679527, lat=43.085807, altitude=187.10, speed=0.29, satellites=6, angle=38.9000, fixquality=1
$GPGGA,193113.200,4305.1484,N,07740.7716,W,1,06,1.23,187.2,M,-34.4,M,,*58
$GPRMC,193113.200,A,4305.1484,N,07740.7716,W,0.26,27.04,130818,$GPGGA,193113.400,4305.1484,N,07740.7716,W,1,06,1.23,187.3,M,-34.4,M,,*5F
lng=-77.679527, lat=43.085807, altitude=187.20, speed=0.26, satellites=6, angle=36.3100, fixquality=1
$GPRMC,193113.600,A,4305.1485,N,07740.7716,W,0.27,21.04,130818,,,A*4A
$GPGGA,193113.800,4305.1485,N,07740.7716,W,1,06,1.23,187.4,M,-34.4,M,,*55
lng=-77.679527, lat=43.085807, altitude=187.20, speed=0.27, satellites=6, angle=21.0400, fixquality=1
$GPRMC,193114.000,A,4305.1486,N,07740.7716,W,0.39,9.20,130818,,,A*7B
$GPGGA,193114.200,4305.1487,N,07740.7715,W,1,06,1.27,187.5,M,-34.4,M,,*5C
lng=-77.679527, lat=43.085807, altitude=187.40, speed=0.39, satellites=6, angle=9.2000, fixquality=1
$GPRMC,193114.400,A,4305.1488,N,07740.7715,W,0.51,7.30,130818,,,A*73
$GPGGA,193114.600,4305.1489,N,07740.7715,W,1,06,1.27,187.7,M,-34.4,M,,*54
lng=-77.679527, lat=43.085815, altitude=187.50, speed=0.51, satellites=6, angle=7.3000, fixquality=1
$GPRMC,193114.800,A,4305.1490,N,07740.7715,W,0.66,8.21,130818,,,A*7D
$GPGGA,193115.000,4305.1491,N,07740.7715,W,1,06,1.27,187.7,M,-34.4,M,,*5A
lng=-77.679527, lat=43.085815, altitude=187.70, speed=0.66, satellites=6, angle=8.2100, fixquality=1
$GPRMC,193115.200,A,4305.1492,N,07740.7716,W,0.76,8.92,130818,,,A*7E
$GPGGA,193115.400,4305.1492,N,07740.7716,W,1,06,1.27,187.5,M,-34.4,M,,*5C
lng=-77.679527, lat=43.085823, altitude=187.70, speed=0.76, satellites=6, angle=8.9200, fixquality=1
$GPRMC,193115.600,A,4305.1492,N,07740.7716,W,0.80,14.38,130818,,,A*4E
$GPGGA,193115.800,4305.1492,N,07740.7716,W,1,06,1.27,187.3,M,-34.4,M,,*56
lng=-77.679527, lat=43.085823, altitude=187.50, speed=0.80, satellites=6, angle=14.3800, fixquality=1
$GPRMC,193116.000,A,4305.1491,N,07740.7715,W,0.77,24.98,130818,,,A*4A
$GPGGA,193116.200,4305.1491,N,07740.7715,W,1,06,1.23,186.9,M,-34.4,M,,*50
lng=-77.679527, lat=43.085815, altitude=187.30, speed=0.77, satellites=6, angle=24.9800, fixquality=1
$GPRMC,193116.400,A,4305.1491,N,07740.7716,W,0.77,15.26,130818,,,A*4A
$GPGGA,193116.600,4305.1490,N,07740.7716,W,1,06,1.23,186.2,M,-34.4,M,,*5D
lng=-77.679527, lat=43.085815, altitude=186.90, speed=0.77, satellites=6, angle=15.2600, fixquality=1
$GPRMC,193116.800,A,4305.1489,N,07740.7716,W,0.81,10.65,130818,,,A*44
$GPGGA,193117.000,4305.1489,N,07740.7717,W,1,06,1.27,185.6,M,-34.4,M,,*50
lng=-77.679527, lat=43.085815, altitude=186.20, speed=0.81, satellites=6, angle=10.6500, fixquality=1
$GPRMC,193117.200,A,4305.1489,N,07740.7717,W,0.89,12.69,130818,,,A*48
$GPGGA,193117.400,4305.1490,N,07740.7717,W,1,06,1.27,185.4,M,-34.4,M,,*5E
lng=-77.679527, lat=43.085815, altitude=185.60, speed=0.89, satellites=6, angle=12.6900, fixquality=1
$GPRMC,193117.600,A,4305.1490,N,07740.7718,W,0.94,10.91,130818,,,A*42
$GPGGA,193117.800,4305.1491,N,07740.7718,W,1,06,1.27,185.1,M,-34.4,M,,*59
lng=-77.679534, lat=43.085815, altitude=185.40, speed=0.94, satellites=6, angle=10.9100, fixquality=1
$GPRMC,193118.000,A,4305.1491,N,07740.7718,W,1.00,12.24,130818,,,A*4A
$GPGGA,193118.200,4305.1492,N,07740.7718,W,1,06,1.27,184.7,M,-34.4,M,,*58
lng=-77.679534, lat=43.085815, altitude=185.10, speed=1.00, satellites=6, angle=12.2400, fixquality=1
$GPRMC,193118.400,A,4305.1492,N,07740.7718,W,1.09,12.75,130818,,,A*40
$GPGGA,193118.600,4305.1493,N,07740.7718,W,1,06,1.27,184.5,M,-34.4,M,,*5F
lng=-77.679534, lat=43.085823, altitude=184.70, speed=1.09, satellites=6, angle=12.7500, fixquality=1
$GPRMC,193118.800,A,4305.1494,N,07740.7719,W,1.14,11.08,130818,,,A*4E
$GPGGA,193119.000,4305.1494,N,07740.7719,W,1,06,1.27,184.3,M,-34.4,M,,*58
lng=-77.679534, lat=43.085823, altitude=184.50, speed=1.14, satellites=6, angle=11.0800, fixquality=1
$GPRMC,193119.200,A,4305.1495,N,07740.7719,W,1.17,8.80,130818,,,A*7F
$GPGGA,193119.400,4305.1495,N,07740.7720,W,1,06,1.27,183.9,M,-34.4,M,,*5A
lng=-77.679534, lat=43.085823, altitude=184.30, speed=1.17, satellites=6, angle=8.8000, fixquality=1
$GPRMC,193119.600,A,4305.1497,N,07740.7723,W,1.29,355.39,130818,,,A*74
$GPGGA,193119.800,4305.1499,N,07740.7725,W,1,06,1.27,183.7,M,-34.4,M,,*51
lng=-77.679542, lat=43.085830, altitude=183.90, speed=1.29, satellites=6, angle=355.3900, fixquality=1
$GPRMC,193120.000,A,4305.1500,N,07740.7726,W,1.42,345.64,130818,,,A*76
$GPGGA,193120.200,4305.1500,N,07740.7727,W,1,06,1.27,183.5,M,-34.4,M,,*50
lng=-77.679542, lat=43.085830, altitude=183.70, speed=1.42, satellites=6, angle=345.6400, fixquality=1
$GPRMC,193120.400,A,4305.1500,N,07740.7728,W,1.23,338.53,130818,,,A*75
$GPGGA,193120.600,4305.1501,N,07740.7728,W,1,06,1.23,183.4,M,-34.4,M,,*5F
lng=-77.679550, lat=43.085830, altitude=183.50, speed=1.23, satellites=6, angle=338.5300, fixquality=1
$GPRMC,193120.800,A,4305.1500,N,07740.7729,W,0.90,337.33,130818,,,A*78
$GPGGA,193121.000,4305.1500,N,07740.7729,W,1,06,1.23,183.2,M,-34.4,M,,*5E
lng=-77.679550, lat=43.085830, altitude=183.40, speed=0.90, satellites=6, angle=337.3300, fixquality=1
$GPRMC,193121.200,A,4305.1500,N,07740.7729,W,0.56,344.26,130818,,,A*79
$GPGGA,193121.400,4305.1500,N,07740.7729,W,1,06,1.23,183.1,M,-34.4,M,,*59
lng=-77.679550, lat=43.085830, altitude=183.20, speed=0.56, satellites=6, angle=344.2600, fixquality=1
$GPRMC,193121.600,A,4305.1500,N,07740.7728,W,0.40,17.32,130818,,,A*4B
$GPGGA,193121.800,4305.1499,N,07740.7728,W,1,06,1.23,183.0,M,-34.4,M,,*54
lng=-77.679550, lat=43.085830, altitude=183.10, speed=0.40, satellites=6, angle=17.3200, fixquality=1
$GPRMC,193122.000,A,4305.1499,N,07740.7727,W,0.52,72.13,130818,,,A*43
$GPGGA,193122.200,4305.1498,N,07740.7725,W,1,06,1.23,183.0,M,-34.4,M,,*51
lng=-77.679542, lat=43.085830, altitude=183.00, speed=0.52, satellites=6, angle=72.1300, fixquality=1
$GPRMC,193122.400,A,4305.1498,N,07740.7724,W,0.94,98.92,130818,,,A*42
$GPGGA,193122.600,4305.1498,N,07740.7723,W,1,06,1.23,182.9,M,-34.4,M,,*5B
lng=-77.679542, lat=43.085830, altitude=183.00, speed=0.94, satellites=6, angle=98.9200, fixquality=1
$GPRMC,193122.800,A,4305.1498,N,07740.7721,W,1.29,95.52,130818,,,A*4D
$GPGGA,193123.000,4305.1497,N,07740.7719,W,1,06,1.23,182.8,M,-34.4,M,,*5B
lng=-77.679534, lat=43.085830, altitude=182.90, speed=1.29, satellites=6, angle=95.5200, fixquality=1
$GPRMC,193123.200,A,4305.1496,N,07740.7717,W,2.62,123.79,130818,,,A*74
$GPGGA,193123.400,4305.1495,N,07740.7715,W,1,06,1.23,182.7,M,-34.4,M,,*5E
lng=-77.679527, lat=43.085823, altitude=182.80, speed=2.62, satellites=6, angle=123.7900, fixquality=1
$GPRMC,193123.600,A,4305.1494,N,07740.7712,W,3.75,114.15,130818,,,A*7E
$GPGGA,193123.800,4305.1493,N,07740.7710,W,1,06,1.23,182.6,M,-34.4,M,,*50
lng=-77.679519, lat=43.085823, altitude=182.70, speed=3.75, satellites=6, angle=114.1500, fixquality=1
$GPRMC,193124.000,A,4305.1491,N,07740.7707,W,4.13,127.61,130818,,,A*7A
$GPGGA,193124.200,4305.1490,N,07740.7704,W,1,07,1.20,182.5,M,-34.4,M,,*5A
lng=-77.679512, lat=43.085815, altitude=182.60, speed=4.13, satellites=6, angle=127.6100, fixquality=1
$GPRMC,193124.400,A,4305.1490,N,07740.7701,W,4.52,117.13,130818,,,A*7A
$GPGGA,193124.600,4305.1489,N,07740.7699,W,1,07,1.20,182.4,M,-34.4,M,,*52
lng=-77.679496, lat=43.085815, altitude=182.50, speed=4.52, satellites=7, angle=117.1300, fixquality=1
$GPRMC,193124.800,A,4305.1488,N,07740.7696,W,4.11,120.62,130818,,,A*75
$GPGGA,193125.000,4305.1488,N,07740.7693,W,1,07,1.21,182.3,M,-34.4,M,,*58
lng=-77.679489, lat=43.085815, altitude=182.40, speed=4.11, satellites=7, angle=120.6200, fixquality=1
$GPRMC,193125.200,A,4305.1488,N,07740.7690,W,4.63,94.23,130818,,,A*46
$GPGGA,193125.400,4305.1489,N,07740.7686,W,1,07,1.20,182.3,M,-34.4,M,,*58
lng=-77.679481, lat=43.085815, altitude=182.30, speed=4.63, satellites=7, angle=94.2300, fixquality=1
$GPRMC,193125.600,A,4305.1489,N,07740.7683,W,4.78,87.95,130818,,,A*44
$GPGGA,193125.800,4305.1489,N,07740.7679,W,1,07,1.20,182.2,M,-34.4,M,,*55
lng=-77.679466, lat=43.085815, altitude=182.30, speed=4.78, satellites=7, angle=87.9500, fixquality=1
$GPRMC,193126.000,A,4305.1489,N,07740.7676,W,4.53,94.07,130818,,,A*4B
$GPGGA,193126.200,4305.1488,N,07740.7673,W,1,07,1.20,182.1,M,-34.4,M,,*54
lng=-77.679458, lat=43.085815, altitude=182.20, speed=4.53, satellites=7, angle=94.0700, fixquality=1
$GPRMC,193126.400,A,4305.1488,N,07740.7670,W,4.27,97.48,130818,,,A*43
$GPGGA,193126.600,4305.1488,N,07740.7667,W,1,07,1.20,182.0,M,-34.4,M,,*54
lng=-77.679450, lat=43.085815, altitude=182.10, speed=4.27, satellites=7, angle=97.4800, fixquality=1
$GPRMC,193126.800,A,4305.1488,N,07740.7665,W,3.94,92.14,130818,,,A*48
$GPGGA,193127.000,4305.1488,N,07740.7662,W,1,07,1.20,181.9,M,-34.4,M,,*5C
lng=-77.679443, lat=43.085815, altitude=182.00, speed=3.94, satellites=7, angle=92.1400, fixquality=1
$GPRMC,193127.200,A,4305.1487,N,07740.7659,W,4.05,97.97,130818,,,A*42
$GPGGA,193127.400,4305.1487,N,07740.7656,W,1,07,1.20,181.8,M,-34.4,M,,*51
lng=-77.679435, lat=43.085815, altitude=181.90, speed=4.05, satellites=7, angle=97.9700, fixquality=1
$GPRMC,193127.600,A,4305.1487,N,07740.7653,W,4.00,94.48,130818,,,A*48
$GPGGA,193127.800,4305.1487,N,07740.7650,W,1,07,1.20,181.7,M,-34.4,M,,*54
lng=-77.679420, lat=43.085815, altitude=181.80, speed=4.00, satellites=7, angle=94.4800, fixquality=1
$GPRMC,193128.000,A,4305.1486,N,07740.7648,W,3.76,100.42,130818,,,A*7A
$GPGGA,193128.200,4305.1486,N,07740.7646,W,1,07,1.16,181.5,M,-34.4,M,,*50
lng=-77.679412, lat=43.085807, altitude=181.70, speed=3.76, satellites=7, angle=100.4200, fixquality=1
$GPRMC,193128.400,A,4305.1486,N,07740.7643,W,3.48,100.06,130818,,,A*78
$GPGGA,193128.600,4305.1486,N,07740.7641,W,1,07,1.16,181.4,M,-34.4,M,,*52
lng=-77.679405, lat=43.085807, altitude=181.50, speed=3.48, satellites=7, angle=100.0600, fixquality=1
$GPRMC,193128.800,A,4305.1486,N,07740.7639,W,3.42,95.95,130818,,,A*44
$GPGGA,193129.000,4305.1486,N,07740.7637,W,1,07,1.16,181.4,M,-34.4,M,,*54
lng=-77.679397, lat=43.085807, altitude=181.40, speed=3.42, satellites=7, angle=95.9500, fixquality=1
$GPRMC,193129.200,A,4305.1485,N,07740.7634,W,3.45,99.18,130818,,,A*4F
$GPGGA,193129.400,4305.1485,N,07740.7632,W,1,07,1.16,181.3,M,-34.4,M,,*51
lng=-77.679389, lat=43.085807, altitude=181.40, speed=3.45, satellites=7, angle=99.1800, fixquality=1
$GPRMC,193129.600,A,4305.1485,N,07740.7629,W,3.99,99.38,130818,,,A*44
$GPGGA,193129.800,4305.1484,N,07740.7625,W,1,07,1.20,181.2,M,-34.4,M,,*5E
lng=-77.679374, lat=43.085807, altitude=181.30, speed=3.99, satellites=7, angle=99.3800, fixquality=1
$GPRMC,193130.000,A,4305.1484,N,07740.7622,W,4.56,98.81,130818,,,A*47
$GPGGA,193130.200,4305.1483,N,07740.7619,W,1,07,1.20,181.1,M,-34.4,M,,*57
lng=-77.679367, lat=43.085807, altitude=181.20, speed=4.56, satellites=7, angle=98.8100, fixquality=1
$GPRMC,193130.400,A,4305.1484,N,07740.7615,W,4.89,95.12,130818,,,A*42
$GPGGA,193130.600,4305.1483,N,07740.7611,W,1,07,1.20,181.0,M,-34.4,M,,*5A
lng=-77.679359, lat=43.085807, altitude=181.10, speed=4.89, satellites=7, angle=95.1200, fixquality=1
$GPRMC,193130.800,A,4305.1482,N,07740.7607,W,5.64,97.60,130818,,,A*4E
$GPGGA,193131.000,4305.1481,N,07740.7602,W,1,07,1.20,180.8,M,-34.4,M,,*54
lng=-77.679344, lat=43.085807, altitude=181.00, speed=5.64, satellites=7, angle=97.6000, fixquality=1
$GPRMC,193131.200,A,4305.1480,N,07740.7598,W,6.36,94.21,130818,,,A*40
$GPGGA,193131.400,4305.1480,N,07740.7593,W,1,07,1.20,180.6,M,-34.4,M,,*54
lng=-77.679328, lat=43.085800, altitude=180.80, speed=6.36, satellites=7, angle=94.2100, fixquality=1
$GPRMC,193131.600,A,4305.1479,N,07740.7588,W,6.84,91.11,130818,,,A*4C
$GPGGA,193131.800,4305.1479,N,07740.7583,W,1,07,1.20,180.4,M,-34.4,M,,*5D
lng=-77.679313, lat=43.085800, altitude=180.60, speed=6.84, satellites=7, angle=91.1100, fixquality=1
$GPRMC,193132.000,A,4305.1479,N,07740.7578,W,7.42,87.00,130818,,,A*4A
$GPGGA,193132.200,4305.1479,N,07740.7572,W,1,07,1.20,180.2,M,-34.4,M,,*5C
lng=-77.679298, lat=43.085800, altitude=180.40, speed=7.42, satellites=7, angle=87.0000, fixquality=1
$GPRMC,193132.400,A,4305.1479,N,07740.7566,W,7.93,88.06,130818,,,A*44
$GPGGA,193132.600,4305.1479,N,07740.7560,W,1,07,1.20,180.1,M,-34.4,M,,*58
lng=-77.679283, lat=43.085800, altitude=180.20, speed=7.93, satellites=7, angle=88.0600, fixquality=1
$GPRMC,193132.800,A,4305.1479,N,07740.7554,W,8.43,84.66,130818,,,A*41
$GPGGA,193133.000,4305.1480,N,07740.7547,W,1,07,1.20,180.1,M,-34.4,M,,*5C
lng=-77.679252, lat=43.085800, altitude=180.10, speed=8.43, satellites=7, angle=84.6600, fixquality=1
$GPRMC,193133.200,A,4305.1482,N,07740.7541,W,8.86,75.40,130818,,,A*49
$GPGGA,193133.400,4305.1484,N,07740.7535,W,1,07,1.20,180.0,M,-34.4,M,,*58
lng=-77.679229, lat=43.085807, altitude=180.10, speed=8.86, satellites=7, angle=75.4000, fixquality=1
$GPRMC,193133.600,A,4305.1486,N,07740.7529,W,9.46,70.46,130818,,,A*49
$GPGGA,193133.800,4305.1489,N,07740.7522,W,1,07,1.20,179.9,M,-34.4,M,,*50
lng=-77.679214, lat=43.085807, altitude=180.00, speed=9.46, satellites=7, angle=70.4600, fixquality=1
$GPRMC,193134.000,A,4305.1491,N,07740.7516,W,10.22,62.11,130818,,,A*79
$GPGGA,193134.200,4305.1493,N,07740.7511,W,1,07,1.20,179.8,M,-34.4,M,,*57
lng=-77.679191, lat=43.085815, altitude=179.90, speed=10.22, satellites=7, angle=62.1100, fixquality=1
$GPRMC,193134.400,A,4305.1495,N,07740.7506,W,10.24,59.27,130818,,,A*73
$GPGGA,193134.600,4305.1498,N,07740.7500,W,1,07,1.20,179.8,M,-34.4,M,,*58
lng=-77.679176, lat=43.085823, altitude=179.80, speed=10.24, satellites=7, angle=59.2700, fixquality=1
$GPRMC,193134.800,A,4305.1502,N,07740.7497,W,10.11,51.74,130818,,,A*71
$GPGGA,193135.000,4305.1506,N,07740.7493,W,1,07,1.20,179.6,M,-34.4,M,,*5C
lng=-77.679161, lat=43.085838, altitude=179.80, speed=10.11, satellites=7, angle=51.7400, fixquality=1
$GPRMC,193135.200,A,4305.1509,N,07740.7488,W,10.01,47.26,130818,,,A*7E
$GPGGA,193135.400,4305.1513,N,07740.7484,W,1,07,1.16,179.5,M,-34.4,M,,*5C
lng=-77.679153, lat=43.085849, altitude=179.60, speed=10.01, satellites=7, angle=47.2600, fixquality=1
$GPRMC,193135.600,A,4305.1519,N,07740.7481,W,9.92,39.90,130818,,,A*44
$GPGGA,193135.800,4305.1525,N,07740.7478,W,1,07,1.20,179.5,M,-34.4,M,,*53
lng=-77.679130, lat=43.085865, altitude=179.50, speed=9.92, satellites=7, angle=39.9000, fixquality=1
$GPRMC,193136.000,A,4305.1532,N,07740.7476,W,10.25,31.44,130818,,,A*75
$GPGGA,193136.200,4305.1538,N,07740.7474,W,1,07,1.20,179.4,M,-34.4,M,,*5B
lng=-77.679122, lat=43.085887, altitude=179.50, speed=10.25, satellites=7, angle=31.4400, fixquality=1
$GPRMC,193136.400,A,4305.1544,N,07740.7471,W,10.88,26.56,130818,,,A*75
$GPGGA,193136.600,4305.1551,N,07740.7468,W,1,07,1.20,179.3,M,-34.4,M,,*5A
lng=-77.679115, lat=43.085903, altitude=179.40, speed=10.88, satellites=7, angle=26.5600, fixquality=1
$GPRMC,193136.800,A,4305.1558,N,07740.7466,W,11.60,22.73,130818,,,A*76
$GPGGA,193137.000,4305.1564,N,07740.7464,W,1,07,1.20,179.2,M,-34.4,M,,*56
lng=-77.679107, lat=43.085929, altitude=179.30, speed=11.60, satellites=7, angle=22.7300, fixquality=1
$GPRMC,193137.200,A,4305.1571,N,07740.7461,W,12.00,20.68,130818,,,A*7C
$GPGGA,193137.400,4305.1578,N,07740.7459,W,1,07,1.16,179.0,M,-34.4,M,,*56
lng=-77.679100, lat=43.085952, altitude=179.20, speed=12.00, satellites=7, angle=20.6800, fixquality=1
$GPRMC,193137.600,A,4305.1587,N,07740.7457,W,12.70,14.62,130818,,,A*7E
$GPGGA,193137.800,4305.1597,N,07740.7458,W,1,07,1.20,178.7,M,-34.4,M,,*59
lng=-77.679092, lat=43.085979, altitude=179.00, speed=12.70, satellites=7, angle=14.6200, fixquality=1
$GPRMC,193138.000,A,4305.1606,N,07740.7457,W,13.75,9.23,130818,,,A*40
$GPGGA,193138.200,4305.1615,N,07740.7457,W,1,07,1.20,178.4,M,-34.4,M,,*59
lng=-77.679092, lat=43.086009, altitude=178.70, speed=13.75, satellites=7, angle=9.2300, fixquality=1
$GPRMC,193138.400,A,4305.1625,N,07740.7456,W,14.67,7.35,130818,,,A*49
$GPGGA,193138.600,4305.1634,N,07740.7455,W,1,07,1.20,178.1,M,-34.4,M,,*59
lng=-77.679092, lat=43.086044, altitude=178.40, speed=14.67, satellites=7, angle=7.3500, fixquality=1
$GPRMC,193138.800,A,4305.1644,N,07740.7455,W,15.66,4.72,130818,,,A*41
$GPGGA,193139.000,4305.1653,N,07740.7455,W,1,07,1.20,177.9,M,-34.4,M,,*58
lng=-77.679092, lat=43.086074, altitude=178.10, speed=15.66, satellites=7, angle=4.7200, fixquality=1
$GPRMC,193139.200,A,4305.1663,N,07740.7455,W,16.47,3.24,130818,,,A*4B
$GPGGA,193139.400,4305.1673,N,07740.7455,W,1,07,1.20,177.6,M,-34.4,M,,*51
lng=-77.679092, lat=43.086109, altitude=177.90, speed=16.47, satellites=7, angle=3.2400, fixquality=1
$GPRMC,193139.600,A,4305.1683,N,07740.7455,W,17.04,1.91,130818,,,A*4B
$GPGGA,193139.800,4305.1694,N,07740.7455,W,1,07,1.20,177.2,M,-34.4,M,,*50
lng=-77.679092, lat=43.086139, altitude=177.60, speed=17.04, satellites=7, angle=1.9100, fixquality=1
$GPRMC,193140.000,A,4305.1704,N,07740.7455,W,17.87,0.66,130818,,,A*4F
$GPGGA,193140.200,4305.1715,N,07740.7456,W,1,07,1.20,176.9,M,-34.4,M,,*55
lng=-77.679092, lat=43.086174, altitude=177.20, speed=17.87, satellites=7, angle=0.6600, fixquality=1
$GPRMC,193140.400,A,4305.1726,N,07740.7456,W,18.45,359.95,130818,,,A*4A
$GPGGA,193140.600,4305.1736,N,07740.7456,W,1,08,0.93,176.5,M,-34.4,M,,*5A
lng=-77.679092, lat=43.086204, altitude=176.90, speed=18.45, satellites=7, angle=359.9500, fixquality=1
$GPRMC,193140.800,A,4305.1747,N,07740.7457,W,18.65,359.87,130818,,,A*41
$GPGGA,193141.000,4305.1757,N,07740.7457,W,1,08,0.93,176.2,M,-34.4,M,,*5C
lng=-77.679092, lat=43.086246, altitude=176.50, speed=18.65, satellites=8, angle=359.8700, fixquality=1
$GPRMC,193141.200,A,4305.1767,N,07740.7457,W,18.74,0.57,130818,,,A*4A
$GPGGA,193141.400,4305.1777,N,07740.7456,W,1,08,0.93,175.9,M,-34.4,M,,*53
lng=-77.679092, lat=43.086280, altitude=176.20, speed=18.74, satellites=8, angle=0.5700, fixquality=1
$GPRMC,193141.600,A,4305.1788,N,07740.7456,W,18.78,0.33,130818,,,A*40
$GPGGA,193141.800,4305.1797,N,07740.7455,W,1,08,0.93,175.6,M,-34.4,M,,*5D
lng=-77.679092, lat=43.086311, altitude=175.90, speed=18.78, satellites=8, angle=0.3300, fixquality=1
$GPRMC,193142.000,A,4305.1807,N,07740.7455,W,18.75,359.93,130818,,,A*46
$GPGGA,193142.200,4305.1817,N,07740.7455,W,1,08,0.93,175.4,M,-34.4,M,,*51
lng=-77.679092, lat=43.086345, altitude=175.60, speed=18.75, satellites=8, angle=359.9300, fixquality=1
$GPRMC,193142.400,A,4305.1828,N,07740.7455,W,18.66,359.34,130818,,,A*40
$GPGGA,193142.600,4305.1838,N,07740.7455,W,1,08,0.93,175.1,M,-34.4,M,,*5D
lng=-77.679092, lat=43.086376, altitude=175.40, speed=18.66, satellites=8, angle=359.3400, fixquality=1
$GPRMC,193142.800,A,4305.1850,N,07740.7456,W,18.67,358.65,130818,,,A*44
$GPGGA,193143.000,4305.1861,N,07740.7457,W,1,08,0.93,174.8,M,-34.4,M,,*5C
lng=-77.679092, lat=43.086418, altitude=175.10, speed=18.67, satellites=8, angle=358.6500, fixquality=1
$GPRMC,193143.200,A,4305.1871,N,07740.7457,W,18.95,358.20,130818,,,A*41
$GPGGA,193143.400,4305.1882,N,07740.7458,W,1,08,0.93,174.5,M,-34.4,M,,*57
lng=-77.679092, lat=43.086448, altitude=174.80, speed=18.95, satellites=8, angle=358.2000, fixquality=1
$GPRMC,193143.600,A,4305.1893,N,07740.7458,W,19.00,358.34,130818,,,A*4E
$GPGGA,193143.800,4305.1904,N,07740.7459,W,1,08,0.93,174.1,M,-34.4,M,,*51
lng=-77.679092, lat=43.086490, altitude=174.50, speed=19.00, satellites=8, angle=358.3400, fixquality=1
$GPRMC,193144.000,A,4305.1915,N,07740.7459,W,19.08,358.54,130818,,,A*4F
$GPGGA,193144.200,4305.1926,N,07740.7459,W,1,08,0.93,173.7,M,-34.4,M,,*5D
lng=-77.679100, lat=43.086524, altitude=174.10, speed=19.08, satellites=8, angle=358.5400, fixquality=1
$GPRMC,193144.400,A,4305.1937,N,07740.7459,W,19.43,358.84,130818,,,A*49
$GPGGA,193144.600,4305.1948,N,07740.7459,W,1,08,0.93,173.3,M,-34.4,M,,*55
lng=-77.679100, lat=43.086563, altitude=173.70, speed=19.43, satellites=8, angle=358.8400, fixquality=1
$GPRMC,193144.800,A,4305.1959,N,07740.7459,W,19.83,358.87,130818,,,A*42
$GPGGA,193145.000,4305.1970,N,07740.7459,W,1,08,0.93,172.9,M,-34.4,M,,*52
lng=-77.679100, lat=43.086597, altitude=173.30, speed=19.83, satellites=8, angle=358.8700, fixquality=1
$GPRMC,193145.200,A,4305.1981,N,07740.7459,W,19.93,359.21,130818,,,A*40
$GPGGA,193145.400,4305.1993,N,07740.7460,W,1,08,0.93,172.5,M,-34.4,M,,*5D
lng=-77.679100, lat=43.086635, altitude=172.90, speed=19.93, satellites=8, angle=359.2100, fixquality=1
$GPRMC,193145.600,A,4305.2004,N,07740.7460,W,20.07,358.53,130818,,,A*4A
$GPGGA,193145.800,4305.2016,N,07740.7460,W,1,08,0.93,172.1,M,-34.4,M,,*52
lng=-77.679100, lat=43.086669, altitude=172.50, speed=20.07, satellites=8, angle=358.5300, fixquality=1
$GPRMC,193146.000,A,4305.2027,N,07740.7460,W,20.29,358.45,130818,,,A*45
$GPGGA,193146.200,4305.2039,N,07740.7460,W,1,08,0.93,171.6,M,-34.4,M,,*52
lng=-77.679100, lat=43.086711, altitude=172.10, speed=20.29, satellites=8, angle=358.4500, fixquality=1
$GPRMC,193146.400,A,4305.2050,N,07740.7460,W,20.35,358.08,130818,,,A*45
$GPGGA,193146.600,4305.2062,N,07740.7461,W,1,08,0.93,171.3,M,-34.4,M,,*5C
lng=-77.679100, lat=43.086750, altitude=171.60, speed=20.35, satellites=8, angle=358.0800, fixquality=1
$GPRMC,193146.800,A,4305.2074,N,07740.7461,W,20.56,358.38,130818,,,A*48
$GPGGA,193147.000,4305.2085,N,07740.7461,W,1,08,0.93,170.9,M,-34.4,M,,*59
lng=-77.679100, lat=43.086791, altitude=171.30, speed=20.56, satellites=8, angle=358.3800, fixquality=1
$GPRMC,193147.200,A,4305.2097,N,07740.7461,W,20.64,358.36,130818,,,A*41
$GPGGA,193147.400,4305.2109,N,07740.7461,W,1,08,0.93,170.4,M,-34.4,M,,*55
lng=-77.679100, lat=43.086826, altitude=170.90, speed=20.64, satellites=8, angle=358.3600, fixquality=1
$GPRMC,193147.600,A,4305.2120,N,07740.7461,W,20.68,358.41,130818,,,A*44
$GPGGA,193147.800,4305.2132,N,07740.7461,W,1,08,0.93,169.9,M,-34.4,M,,*54
lng=-77.679100, lat=43.086864, altitude=170.40, speed=20.68, satellites=8, angle=358.4100, fixquality=1
$GPRMC,193148.000,A,4305.2144,N,07740.7461,W,20.71,358.35,130818,,,A*44
$GPGGA,193148.200,4305.2154,N,07740.7461,W,1,08,0.93,169.2,M,-34.4,M,,*5A
lng=-77.679100, lat=43.086906, altitude=169.90, speed=20.71, satellites=8, angle=358.3500, fixquality=1
$GPRMC,193148.400,A,4305.2166,N,07740.7461,W,20.62,0.01,130818,,,A*4B
$GPGGA,193148.600,4305.2178,N,07740.7461,W,1,08,0.93,168.7,M,-34.4,M,,*54
lng=-77.679100, lat=43.086948, altitude=169.20, speed=20.62, satellites=8, angle=0.0100, fixquality=1
$GPRMC,193148.800,A,4305.2189,N,07740.7460,W,20.65,359.79,130818,,,A*40
$GPGGA,193149.000,4305.2201,N,07740.7460,W,1,08,0.93,168.6,M,-34.4,M,,*5E
lng=-77.679100, lat=43.086978, altitude=168.70, speed=20.65, satellites=8, angle=359.7900, fixquality=1
$GPRMC,193149.200,A,4305.2212,N,07740.7461,W,20.55,359.69,130818,,,A*49
$GPGGA,193149.400,4305.2224,N,07740.7460,W,1,08,0.93,168.3,M,-34.4,M,,*58
lng=-77.679100, lat=43.087020, altitude=168.60, speed=20.55, satellites=8, angle=359.6900, fixquality=1
$GPRMC,193149.600,A,4305.2235,N,07740.7460,W,20.35,359.95,130818,,,A*4C
$GPGGA,193149.800,4305.2247,N,07740.7460,W,1,08,0.93,167.9,M,-34.4,M,,*54
lng=-77.679100, lat=43.087059, altitude=168.30, speed=20.35, satellites=8, angle=359.9500, fixquality=1
$GPRMC,193150.000,A,4305.2258,N,07740.7460,W,20.34,359.90,130818,,,A*4D
$GPGGA,193150.200,4305.2270,N,07740.7460,W,1,08,0.93,167.6,M,-34.4,M,,*5D
lng=-77.679100, lat=43.087093, altitude=167.90, speed=20.34, satellites=8, angle=359.9000, fixquality=1
$GPRMC,193150.400,A,4305.2281,N,07740.7460,W,20.40,0.01,130818,,,A*49
$GPGGA,193150.600,4305.2293,N,07740.7459,W,1,08,0.93,167.4,M,-34.4,M,,*5C
lng=-77.679100, lat=43.087135, altitude=167.60, speed=20.40, satellites=8, angle=0.0100, fixquality=1
$GPRMC,193150.800,A,4305.2304,N,07740.7459,W,20.34,359.54,130818,,,A*4F
$GPGGA,193151.000,4305.2315,N,07740.7459,W,1,08,0.93,167.3,M,-34.4,M,,*53
lng=-77.679100, lat=43.087173, altitude=167.40, speed=20.34, satellites=8, angle=359.5400, fixquality=1
$GPRMC,193151.200,A,4305.2327,N,07740.7459,W,19.70,359.96,130818,,,A*41
$GPGGA,193151.400,4305.2338,N,07740.7458,W,1,08,0.93,167.1,M,-34.4,M,,*5B
lng=-77.679100, lat=43.087215, altitude=167.30, speed=19.70, satellites=8, angle=359.9600, fixquality=1
$GPRMC,193151.600,A,4305.2348,N,07740.7458,W,18.88,0.16,130818,,,A*4C
$GPGGA,193151.800,4305.2359,N,07740.7458,W,1,08,0.93,166.8,M,-34.4,M,,*58
lng=-77.679092, lat=43.087245, altitude=167.10, speed=18.88, satellites=8, angle=0.1600, fixquality=1
$GPRMC,193152.000,A,4305.2370,N,07740.7458,W,18.56,0.06,130818,,,A*40
$GPGGA,193152.200,4305.2380,N,07740.7457,W,1,08,0.93,166.6,M,-34.4,M,,*54
lng=-77.679092, lat=43.087280, altitude=166.80, speed=18.56, satellites=8, angle=0.0600, fixquality=1
$GPRMC,193152.400,A,4305.2391,N,07740.7457,W,18.48,359.62,130818,,,A*46
$GPGGA,193152.600,4305.2401,N,07740.7457,W,1,08,0.93,166.4,M,-34.4,M,,*5C
lng=-77.679092, lat=43.087322, altitude=166.60, speed=18.48, satellites=8, angle=359.6200, fixquality=1
$GPRMC,193152.800,A,4305.2411,N,07740.7457,W,18.38,359.44,130818,,,A*46
$GPGGA,193153.000,4305.2421,N,07740.7457,W,1,08,0.93,166.1,M,-34.4,M,,*5C
lng=-77.679092, lat=43.087352, altitude=166.40, speed=18.38, satellites=8, angle=359.4400, fixquality=1
$GPRMC,193153.200,A,4305.2431,N,07740.7457,W,17.95,359.60,130818,,,A*41
$GPGGA,193153.400,4305.2441,N,07740.7457,W,1,08,0.93,165.9,M,-34.4,M,,*55
lng=-77.679092, lat=43.087387, altitude=166.10, speed=17.95, satellites=8, angle=359.6000, fixquality=1
$GPRMC,193153.600,A,4305.2450,N,07740.7457,W,17.25,359.78,130818,,,A*40
$GPGGA,193153.800,4305.2459,N,07740.7457,W,1,08,0.93,165.7,M,-34.4,M,,*5E
lng=-77.679092, lat=43.087417, altitude=165.90, speed=17.25, satellites=8, angle=359.7800, fixquality=1
$GPRMC,193154.000,A,4305.2468,N,07740.7457,W,15.70,359.65,130818,,,A*44
$GPGGA,193154.200,4305.2476,N,07740.7456,W,1,08,0.93,165.4,M,-34.4,M,,*5C
lng=-77.679092, lat=43.087444, altitude=165.70, speed=15.70, satellites=8, angle=359.6500, fixquality=1
$GPRMC,193154.400,A,4305.2484,N,07740.7456,W,14.16,359.35,130818,,,A*47
$GPGGA,193154.600,4305.2490,N,07740.7456,W,1,08,0.93,165.2,M,-34.4,M,,*56
lng=-77.679092, lat=43.087474, altitude=165.40, speed=14.16, satellites=8, angle=359.3500, fixquality=1
$GPRMC,193154.800,A,4305.2495,N,07740.7456,W,11.65,359.66,130818,,,A*4C
$GPGGA,193155.000,4305.2500,N,07740.7455,W,1,08,0.93,165.0,M,-34.4,M,,*58
lng=-77.679092, lat=43.087490, altitude=165.20, speed=11.65, satellites=8, angle=359.6600, fixquality=1
$GPRMC,193155.200,A,4305.2504,N,07740.7454,W,9.33,359.98,130818,,,A*77
$GPGGA,193155.400,4305.2507,N,07740.7454,W,1,08,0.93,164.8,M,-34.4,M,,*53
lng=-77.679092, lat=43.087509, altitude=165.00, speed=9.33, satellites=8, angle=359.9800, fixquality=1
$GPRMC,193155.600,A,4305.2510,N,07740.7453,W,7.55,0.40,130818,,,A*75
$GPGGA,193155.800,4305.2512,N,07740.7453,W,1,08,0.93,164.6,M,-34.4,M,,*52
lng=-77.679084, lat=43.087516, altitude=164.80, speed=7.55, satellites=8, angle=0.4000, fixquality=1
$GPRMC,193156.000,A,4305.2513,N,07740.7453,W,5.30,3.15,130818,,,A*71
$GPGGA,193156.200,4305.2515,N,07740.7452,W,1,08,0.93,164.5,M,-34.4,M,,*5E
lng=-77.679084, lat=43.087524, altitude=164.60, speed=5.30, satellites=8, angle=3.1500, fixquality=1
$GPRMC,193156.400,A,4305.2516,N,07740.7452,W,4.01,4.11,130818,,,A*71
$GPGGA,193156.600,4305.2516,N,07740.7452,W,1,08,0.93,164.3,M,-34.4,M,,*5F
lng=-77.679084, lat=43.087524, altitude=164.50, speed=4.01, satellites=8, angle=4.1100, fixquality=1
$GPRMC,193156.800,A,4305.2515,N,07740.7451,W,2.37,6.66,130818,,,A*7C
$GPGGA,193157.000,4305.2515,N,07740.7451,W,1,08,0.93,164.3,M,-34.4,M,,*58
lng=-77.679084, lat=43.087524, altitude=164.30, speed=2.37, satellites=8, angle=6.6600, fixquality=1
$GPRMC,193157.200,A,4305.2515,N,07740.7450,W,1.80,6.66,130818,,,A*79
$GPGGA,193157.400,4305.2515,N,07740.7451,W,1,08,0.93,164.2,M,-34.4,M,,*5D
lng=-77.679084, lat=43.087524, altitude=164.30, speed=1.80, satellites=8, angle=6.6600, fixquality=1
$GPRMC,193157.600,A,4305.2516,N,07740.7451,W,1.78,6.66,130818,,,A*78
$GPGGA,193157.800,4305.2516,N,07740.7451,W,1,08,0.93,164.1,M,-34.4,M,,*51
lng=-77.679084, lat=43.087524, altitude=164.20, speed=1.78, satellites=8, angle=6.6600, fixquality=1
$GPRMC,193158.000,A,4305.2518,N,07740.7451,W,2.47,6.66,130818,,,A*70
$GPGGA,193158.200,4305.2519,N,07740.7451,W,1,08,0.93,164.0,M,-34.4,M,,*5A
lng=-77.679084, lat=43.087532, altitude=164.10, speed=2.47, satellites=8, angle=6.6600, fixquality=1
$GPRMC,193158.400,A,4305.2521,N,07740.7450,W,3.24,14.69,130818,,,A*47
$GPGGA,193158.600,4305.2523,N,07740.7450,W,1,08,0.93,163.9,M,-34.4,M,,*58
lng=-77.679084, lat=43.087532, altitude=164.00, speed=3.24, satellites=8, angle=14.6900, fixquality=1
$GPRMC,193158.800,A,4305.2526,N,07740.7450,W,4.29,8.32,130818,,,A*75
$GPGGA,193159.000,4305.2529,N,07740.7450,W,1,08,0.93,163.8,M,-34.4,M,,*54
lng=-77.679084, lat=43.087539, altitude=163.90, speed=4.29, satellites=8, angle=8.3200, fixquality=1
$GPRMC,193159.200,A,4305.2532,N,07740.7449,W,5.27,11.56,130818,,,A*46
$GPGGA,193159.400,4305.2536,N,07740.7449,W,1,08,0.93,163.7,M,-34.4,M,,*59
lng=-77.679084, lat=43.087558, altitude=163.80, speed=5.27, satellites=8, angle=11.5600, fixquality=1
$GPRMC,193159.600,A,4305.2540,N,07740.7447,W,6.78,19.93,130818,,,A*41
$GPGGA,193159.800,4305.2544,N,07740.7446,W,1,08,0.93,163.5,M,-34.4,M,,*5D
lng=-77.679077, lat=43.087566, altitude=163.70, speed=6.78, satellites=8, angle=19.9300, fixquality=1
$GPRMC,193200.000,A,4305.2548,N,07740.7444,W,7.90,24.98,130818,,,A*41
$GPGGA,193200.200,4305.2550,N,07740.7445,W,1,08,0.93,163.3,M,-34.4,M,,*58
lng=-77.679077, lat=43.087581, altitude=163.50, speed=7.90, satellites=8, angle=24.9800, fixquality=1
$GPRMC,193200.400,A,4305.2554,N,07740.7443,W,8.95,29.53,130818,,,A*4F
$GPGGA,193200.600,4305.2561,N,07740.7441,W,1,08,0.93,163.3,M,-34.4,M,,*5A
lng=-77.679069, lat=43.087589, altitude=163.30, speed=8.95, satellites=8, angle=29.5300, fixquality=1
$GPRMC,193200.800,A,4305.2566,N,07740.7437,W,9.74,38.08,130818,,,A*41
$GPGGA,193201.000,4305.2570,N,07740.7431,W,1,08,0.93,163.1,M,-34.4,M,,*58
lng=-77.679061, lat=43.087612, altitude=163.30, speed=9.74, satellites=8, angle=38.0800, fixquality=1
$GPRMC,193201.200,A,4305.2573,N,07740.7426,W,10.58,49.45,130818,,,A*77
$GPGGA,193201.400,4305.2577,N,07740.7420,W,1,08,0.93,163.0,M,-34.4,M,,*5A
lng=-77.679046, lat=43.087623, altitude=163.10, speed=10.58, satellites=8, angle=49.4500, fixquality=1
$GPRMC,193201.600,A,4305.2581,N,07740.7414,W,11.89,55.41,130818,,,A*7B
$GPGGA,193201.800,4305.2584,N,07740.7408,W,1,08,0.93,162.9,M,-34.4,M,,*58
lng=-77.679023, lat=43.087638, altitude=163.00, speed=11.89, satellites=8, angle=55.4100, fixquality=1
$GPRMC,193202.000,A,4305.2586,N,07740.7402,W,12.67,61.08,130818,,,A*77
